[
  {
    "id": 1,
    "name": "Магазин в Зеленоградском",
    "address": "Московская область, Пушкинский район, посёлок Зеленоградский, ул. Шоссейная, д. 12",
    "iconColor": "orange",
    "phone": "+7 (901) 570-19-37",
    "hours": "Ежедневно с 9:00 до 21:00",
    "features": ["Доставка", "Парковка", "Под заказ"],
    "coords": { "lat": 56.092486, "lng": 37.900084 },
    "closed": false
  },
  {
    "id": 2,
    "name": "Магазин в Ашукино",
    "address": "Московская область, Пушкинский район, п. г. т. Ашукино, ул. Железнодорожная, 2А",
    "iconColor": "green",
    "phone": "+7 (925) 003-99-20",
    "hours": "Ежедневно с 09:00 до 21:00",
    "features": ["Доставка", "Парковка", "Под заказ"],
    "coords": { "lat": 56.162351, "lng": 37.946158 },
    "closed": false
  },
  {
    "id": 3,
    "name": "Магазин в Софрино",
    "address": "Московская область, Пушкинский район, посёлок Софрино, ул. Тютчева, владение 17, стр.7, ТЦ Пушкинского РАЙПО, слева от хозяйственного магазина",
    "iconColor": "purple",
    "phone": "+7 (926) 057-83-10",
    "hours": "Ежедневно с 8:30 до 20:30",
    "features": ["Доставка", "Парковка", "Под заказ"],
    "coords": { "lat": 56.133813, "lng": 37.932243 },
    "closed": false
  },
  {
    "id": 4,
    "name": "Магазин в Заветах Ильича",
    "address": "Московская область, Пушкино, микрорайон Заветы Ильича, улица Энтузиастов, 23А",
    "iconColor": "blue",
    "phone": "+7 (925) 046-58-07",
    "hours": "Ежедневно с 9:00 до 21:00",
    "features": ["Доставка", "Парковка", "Под заказ"],
    "coords": { "lat": 56.039852, "lng": 37.856057 },
    "closed": false
  },
  {
    "id": 5,
    "name": "Магазин в Клязьме",
    "address": "Московская область, Пушкинский район, г. Пушкино, мкрн Клязьма, ул. Крыловская, д.9/1, напротив семейной поликлиники",
    "iconColor": "pink",
    "phone": "+7 (926) 188-75-44",
    "hours": "Ежедневно с 9:00 до 21:00",
    "features": ["Доставка", "Парковка", "Под заказ"],
    "coords": { "lat": 55.976775, "lng": 37.820744 },
    "closed": false
  },
  {
    "id": 6,
    "name": "Магазин в Зверосовхозе",
    "address": "Московская область, Пушкинский район, поселок Зверосовхоз, ул.Центральная, д.14а",
    "iconColor": "indigo",
    "phone": "+7 (925) 458-90-41",
    "hours": "Ежедневно с 9:00 до 20:00",
    "features": ["Доставка", "Парковка", "Под заказ"],
    "coords": { "lat": 55.984250, "lng": 37.800694 },
    "closed": false
  }
]
